{
  "lastUpdated": 1706052674298,
  "data": [
    {
      "team": "CEO",
      "name": "Joel",
      "role": "CEO",
      "location": "Boulder, CO, USA",
      "start_date": "Aug 1, 2010",
      "country": "United States",
      "city": "Boulder",
      "emoji": "memo_1",
      "coord": {
        "lat": 40.015,
        "lng": -105.2705
      }
    },
    {
      "team": "People",
      "name": "Caro",
      "role": "Chief of Staff",
      "location": "Portland, OR, USA",
      "start_date": "Sep 1, 2012",
      "country": "United States",
      "city": "Portland",
      "emoji": "memo_2",
      "coord": {
        "lat": 45.5051,
        "lng": -122.675
      }
    },
    {
      "team": "Product",
      "name": "Maria",
      "role": "CPO",
      "location": "Denver, CO, USA",
      "start_date": "Oct 31, 2020",
      "country": "United States",
      "city": "Denver",
      "emoji": "memo_3",
      "coord": {
        "lat": 39.7392,
        "lng": -104.9903
      }
    },
    {
      "team": "Advocacy",
      "name": "Åsa",
      "role": "VP Customer Advocacy",
      "location": "Sydney, Australia",
      "start_date": "Feb 18, 2013",
      "country": "Australia",
      "city": "Sydney",
      "emoji": "memo_4",
      "coord": {
        "lat": -33.8688,
        "lng": 151.2093
      }
    },
    {
      "team": "People",
      "name": "Mandy",
      "role": "Executive Assistant",
      "location": "Nashville, TN, USA",
      "start_date": "Nov 26, 2018",
      "country": "United States",
      "city": "Nashville",
      "emoji": "memo_5",
      "coord": {
        "lat": 36.1627,
        "lng": -86.7816
      }
    },
    {
      "team": "People",
      "name": "Jenna",
      "role": "EA & People Ops Specialist",
      "location": "Grand Rapids, MI, USA",
      "start_date": "Nov 30, 2021",
      "country": "United States",
      "city": "Grand Rapids",
      "emoji": "memo_6",
      "coord": {
        "lat": 42.9634,
        "lng": -85.6681
      }
    },
    {
      "team": "Finance",
      "name": "Jenny",
      "role": "Finance",
      "location": "Louisville, KY, USA",
      "start_date": "Mar 28, 2016",
      "country": "United States",
      "city": "Louisville",
      "emoji": "memo_7",
      "coord": {
        "lat": 38.2527,
        "lng": -85.7585
      }
    },
    {
      "team": "Finance",
      "name": "Kyle",
      "role": "Accountant",
      "location": "Jacksonville, FL, USA",
      "start_date": "Nov 12, 2018",
      "country": "United States",
      "city": "Jacksonville",
      "emoji": "memo_8",
      "coord": {
        "lat": 30.3322,
        "lng": -81.6557
      }
    },
    {
      "team": "Finance",
      "name": "Nick",
      "role": "Accountant",
      "location": "Nairobi, Kenya",
      "start_date": "Apr 19, 2021",
      "country": "Kenya",
      "city": "Nairobi",
      "emoji": "memo_9",
      "coord": {
        "lat": -1.2864,
        "lng": 36.8172
      }
    },
    {
      "team": "Marketing",
      "name": "Mike E",
      "role": "Product Marketing Manager",
      "location": "Sydney, Australia",
      "start_date": "Oct 14, 2015",
      "country": "Australia",
      "city": "Sydney",
      "emoji": "memo_10",
      "coord": {
        "lat": -33.8688,
        "lng": 151.2093
      }
    },
    {
      "team": "Marketing",
      "name": "Hailley",
      "role": "Content & Communications Manager",
      "location": "Nashville, TN, USA",
      "start_date": "Feb 1, 2016",
      "country": "United States",
      "city": "Nashville",
      "emoji": "memo_11",
      "coord": {
        "lat": 36.1627,
        "lng": -86.7816
      }
    },
    {
      "team": "Marketing",
      "name": "Sophie",
      "role": "Growth Marketing Manager",
      "location": "Nomad",
      "start_date": "Apr 16, 2020",
      "country": "",
      "city": "",
      "emoji": "memo_12",
      "coord": {
        "lat": 0,
        "lng": 0
      }
    },
    {
      "team": "Engineering",
      "name": "Adnan",
      "role": "Software Engineer",
      "location": "Global Cost of Living ",
      "start_date": "Jan 4, 2016",
      "country": "",
      "city": "Church Of Living Grace (Cheung Sha Wan) 基督教恩霖堂(長沙灣堂)",
      "emoji": "memo_13",
      "coord": {
        "lat": 22.3375,
        "lng": 114.1557
      }
    },
    {
      "team": "Engineering",
      "name": "Andy",
      "role": "Mobile Engineer",
      "location": "San Francisco, CA, USA",
      "start_date": "Jun 1, 2012",
      "country": "United States",
      "city": "San Francisco",
      "emoji": "memo_14",
      "coord": {
        "lat": 37.7749,
        "lng": -122.4194
      }
    },
    {
      "team": "Engineering",
      "name": "Boris",
      "role": "Software Engineer",
      "location": "Montpellier, France",
      "start_date": "Nov 9, 2015",
      "country": "France",
      "city": "Montpellier",
      "emoji": "memo_15",
      "coord": {
        "lat": 43.6108,
        "lng": 3.8767
      }
    },
    {
      "team": "Engineering",
      "name": "Eric",
      "role": "Platform Engineer",
      "location": "Taipei, Taiwan",
      "start_date": "Jan 6, 2015",
      "country": "Taiwan",
      "city": "Taipei",
      "emoji": "memo_16",
      "coord": {
        "lat": 25.033,
        "lng": 121.5654
      }
    },
    {
      "team": "Engineering",
      "name": "Hamish",
      "role": "Engineering Manager",
      "location": "Vancouver, Canada",
      "start_date": "Apr 25, 2016",
      "country": "Canada",
      "city": "Vancouver",
      "emoji": "memo_17",
      "coord": {
        "lat": 49.2827,
        "lng": -123.1207
      }
    },
    {
      "team": "Engineering",
      "name": "Joe",
      "role": "Mobile Engineer",
      "location": "Brighton, UK",
      "start_date": "Jul 18, 2016",
      "country": "United Kingdom",
      "city": "Brighton",
      "emoji": "memo_18",
      "coord": {
        "lat": 50.8225,
        "lng": -0.1372
      }
    },
    {
      "team": "Engineering",
      "name": "José",
      "role": "Software Engineer",
      "location": "Madrid, Spain",
      "start_date": "Dec 1, 2014",
      "country": "Spain",
      "city": "Madrid",
      "emoji": "memo_19",
      "coord": {
        "lat": 40.4168,
        "lng": -3.7038
      }
    },
    {
      "team": "Engineering",
      "name": "Mike S",
      "role": "Engineering, Platform & Technology",
      "location": "Barcelona, Spain",
      "start_date": "Jul 14, 2014",
      "country": "Spain",
      "city": "Barcelona",
      "emoji": "memo_20",
      "coord": {
        "lat": 41.3851,
        "lng": 2.1734
      }
    },
    {
      "team": "Engineering",
      "name": "Phil",
      "role": "Software Engineer",
      "location": "Montpellier, France",
      "start_date": "Feb 9, 2015",
      "country": "France",
      "city": "Montpellier",
      "emoji": "memo_21",
      "coord": {
        "lat": 43.6108,
        "lng": 3.8767
      }
    },
    {
      "team": "Engineering",
      "name": "Steven",
      "role": "Platform Engineer",
      "location": "Taipei, Taiwan",
      "start_date": "Feb 3, 2014",
      "country": "Taiwan",
      "city": "Taipei",
      "emoji": "memo_22",
      "coord": {
        "lat": 25.033,
        "lng": 121.5654
      }
    },
    {
      "team": "Engineering",
      "name": "Eduardo",
      "role": "Software Engineer",
      "location": "Alicante, Spain",
      "start_date": "Aug 1, 2018",
      "country": "Spain",
      "city": "Alicante",
      "emoji": "memo_23",
      "coord": {
        "lat": 38.3452,
        "lng": -0.481
      }
    },
    {
      "team": "Engineering",
      "name": "Maya",
      "role": "Software Engineer",
      "location": "Barcelona, Spain",
      "start_date": "Jul 25, 2018",
      "country": "Spain",
      "city": "Barcelona",
      "emoji": "memo_24",
      "coord": {
        "lat": 41.3851,
        "lng": 2.1734
      }
    },
    {
      "team": "Engineering",
      "name": "Sol",
      "role": "Software Engineer",
      "location": "Global Cost of Living ",
      "start_date": "Oct 29, 2018",
      "country": "",
      "city": "Church Of Living Grace (Cheung Sha Wan) 基督教恩霖堂(長沙灣堂)",
      "emoji": "memo_25",
      "coord": {
        "lat": 22.3375,
        "lng": 114.1557
      }
    },
    {
      "team": "Engineering",
      "name": "Dinos",
      "role": "Software Engineer",
      "location": "Gorredijk, Netherlands",
      "start_date": "Jun 5, 2019",
      "country": "Netherlands",
      "city": "Gorredijk",
      "emoji": "memo_26",
      "coord": {
        "lat": 53.0094,
        "lng": 6.0675
      }
    },
    {
      "team": "Engineering",
      "name": "Dianne",
      "role": "Engineering, Management",
      "location": "Zurich, Switzerland",
      "start_date": "May 30, 2019",
      "country": "Switzerland",
      "city": "Zürich",
      "emoji": "memo_27",
      "coord": {
        "lat": 47.3769,
        "lng": 8.5417
      }
    },
    {
      "team": "Engineering",
      "name": "Dace",
      "role": "Software Engineer",
      "location": "New York, NY, USA",
      "start_date": "Jul 1, 2019",
      "country": "United States",
      "city": "New York",
      "emoji": "memo_28",
      "coord": {
        "lat": 40.7128,
        "lng": -74.006
      }
    },
    {
      "team": "Engineering",
      "name": "Mick",
      "role": "Software Engineer",
      "location": "Wexford, Ireland",
      "start_date": "Jan 21, 2016",
      "country": "Ireland",
      "city": "Wexford",
      "emoji": "memo_29",
      "coord": {
        "lat": 52.3369,
        "lng": -6.4633
      }
    },
    {
      "team": "Engineering",
      "name": "Carlos",
      "role": "Engineering Manager",
      "location": "Madrid, Spain",
      "start_date": "May 10, 2021",
      "country": "Spain",
      "city": "Madrid",
      "emoji": "memo_30",
      "coord": {
        "lat": 40.4168,
        "lng": -3.7038
      }
    },
    {
      "team": "Engineering",
      "name": "Peter",
      "role": "Platform Engineer",
      "location": "Global Cost of Living ",
      "start_date": "Jun 1, 2021",
      "country": "",
      "city": "Church Of Living Grace (Cheung Sha Wan) 基督教恩霖堂(長沙灣堂)",
      "emoji": "memo_31",
      "coord": {
        "lat": 22.3375,
        "lng": 114.1557
      }
    },
    {
      "team": "Engineering",
      "name": "Arek",
      "role": "Software Engineer",
      "location": "Warsaw, Poland",
      "start_date": "Jun 7, 2021",
      "country": "Poland",
      "city": "Warsaw",
      "emoji": "memo_32",
      "coord": {
        "lat": 52.2297,
        "lng": 21.0122
      }
    },
    {
      "team": "Engineering",
      "name": "Mw",
      "role": "Software Engineer",
      "location": "Cape Town, South Africa",
      "start_date": "Jun 14, 2021",
      "country": "South Africa",
      "city": "Cape Town",
      "emoji": "memo_33",
      "coord": {
        "lat": -33.9249,
        "lng": 18.4241
      }
    },
    {
      "team": "Engineering",
      "name": "Daisy",
      "role": "Software Engineer",
      "location": "Sydney, Australia",
      "start_date": "Aug 2, 2021",
      "country": "Australia",
      "city": "Sydney",
      "emoji": "memo_34",
      "coord": {
        "lat": -33.8688,
        "lng": 151.2093
      }
    },
    {
      "team": "Product",
      "name": "Diego",
      "role": "Product Manager",
      "location": "Barcelona, Spain",
      "start_date": "Apr 1, 2019",
      "country": "Spain",
      "city": "Barcelona",
      "emoji": "memo_35",
      "coord": {
        "lat": 41.3851,
        "lng": 2.1734
      }
    },
    {
      "team": "Product",
      "name": "Amanda",
      "role": "Product Manager",
      "location": "Amsterdam, Netherlands",
      "start_date": "Feb 17, 2020",
      "country": "Netherlands",
      "city": "Amsterdam",
      "emoji": "memo_1",
      "coord": {
        "lat": 52.3676,
        "lng": 4.9041
      }
    },
    {
      "team": "Design",
      "name": "Sofia",
      "role": "Product Designer",
      "location": "Barcelona, Spain",
      "start_date": "Jul 5, 2021",
      "country": "Spain",
      "city": "Barcelona",
      "emoji": "memo_2",
      "coord": {
        "lat": 41.3851,
        "lng": 2.1734
      }
    },
    {
      "team": "Design",
      "name": "Ismail",
      "role": "Product Designer",
      "location": "Casablanca, Morocco",
      "start_date": "Sep 13, 2021",
      "country": "Morocco",
      "city": "Casablanca",
      "emoji": "memo_3",
      "coord": {
        "lat": 33.5731,
        "lng": -7.5898
      }
    },
    {
      "team": "Data",
      "name": "Julian",
      "role": "Data Scientist",
      "location": "Louisville, KY, USA",
      "start_date": "Mar 16, 2015",
      "country": "United States",
      "city": "Louisville",
      "emoji": "memo_4",
      "coord": {
        "lat": 38.2527,
        "lng": -85.7585
      }
    },
    {
      "team": "Advocacy",
      "name": "Adam",
      "role": "Escalations Manager",
      "location": "Wesley Chapel, FL, USA",
      "start_date": "Nov 18, 2013",
      "country": "United States",
      "city": "Wesley Chapel",
      "emoji": "memo_5",
      "coord": {
        "lat": 28.1798,
        "lng": -82.3503
      }
    },
    {
      "team": "Advocacy",
      "name": "Daniel S",
      "role": "Customer Advocate",
      "location": "Bonners Ferry, ID, USA",
      "start_date": "Apr 25, 2016",
      "country": "United States",
      "city": "Bonners Ferry",
      "emoji": "memo_6",
      "coord": {
        "lat": 48.6914,
        "lng": -116.3131
      }
    },
    {
      "team": "Advocacy",
      "name": "Danny",
      "role": "Technical Advocate",
      "location": "Manchester, UK",
      "start_date": "May 5, 2015",
      "country": "United Kingdom",
      "city": "Manchester",
      "emoji": "memo_7",
      "coord": {
        "lat": 53.4808,
        "lng": -2.2426
      }
    },
    {
      "team": "Advocacy",
      "name": "Darcy",
      "role": "Customer Advocate Manager",
      "location": "Denver, CO, USA",
      "start_date": "Nov 16, 2015",
      "country": "United States",
      "city": "Denver",
      "emoji": "memo_8",
      "coord": {
        "lat": 39.7392,
        "lng": -104.9903
      }
    },
    {
      "team": "Advocacy",
      "name": "Dave C",
      "role": "Customer Advocate",
      "location": "London, UK",
      "start_date": "Mar 7, 2014",
      "country": "United Kingdom",
      "city": "London",
      "emoji": "memo_9",
      "coord": {
        "lat": 51.5074,
        "lng": -0.1278
      }
    },
    {
      "team": "Advocacy",
      "name": "Hannah",
      "role": "Customer Advocacy Operations",
      "location": "Brighton, UK",
      "start_date": "Jan 4, 2016",
      "country": "United Kingdom",
      "city": "Brighton",
      "emoji": "memo_10",
      "coord": {
        "lat": 50.8225,
        "lng": -0.1372
      }
    },
    {
      "team": "Advocacy",
      "name": "Jess",
      "role": "Customer Advocate",
      "location": "Kalispell, MT, USA",
      "start_date": "Dec 8, 2016",
      "country": "United States",
      "city": "Kalispell",
      "emoji": "memo_11",
      "coord": {
        "lat": 48.2023,
        "lng": -114.3126
      }
    },
    {
      "team": "Advocacy",
      "name": "Julia",
      "role": "Customer Advocate",
      "location": "Los Angeles, CA, USA",
      "start_date": "Mar 28, 2016",
      "country": "United States",
      "city": "Los Angeles",
      "emoji": "memo_12",
      "coord": {
        "lat": 34.0522,
        "lng": -118.2437
      }
    },
    {
      "team": "Advocacy",
      "name": "Juliet",
      "role": "Customer Advocate",
      "location": "London, UK",
      "start_date": "Nov 9, 2015",
      "country": "United Kingdom",
      "city": "London",
      "emoji": "memo_13",
      "coord": {
        "lat": 51.5074,
        "lng": -0.1278
      }
    },
    {
      "team": "Advocacy",
      "name": "Karinna",
      "role": "Technical Advocate",
      "location": "Tustin, CA, USA",
      "start_date": "Mar 14, 2016",
      "country": "United States",
      "city": "Tustin",
      "emoji": "memo_14",
      "coord": {
        "lat": 33.7459,
        "lng": -117.8262
      }
    },
    {
      "team": "Advocacy",
      "name": "Kelly",
      "role": "Customer Advocate",
      "location": "Philadelphia, PA, USA",
      "start_date": "Aug 17, 2015",
      "country": "United States",
      "city": "Philadelphia",
      "emoji": "memo_15",
      "coord": {
        "lat": 39.9526,
        "lng": -75.1652
      }
    },
    {
      "team": "Advocacy",
      "name": "Nate",
      "role": "Customer Advocate",
      "location": "Portland, OR, USA",
      "start_date": "Jan 22, 2018",
      "country": "United States",
      "city": "Portland",
      "emoji": "memo_16",
      "coord": {
        "lat": 45.5051,
        "lng": -122.675
      }
    },
    {
      "team": "Advocacy",
      "name": "Octa",
      "role": "Customer Advocate",
      "location": "Nomad",
      "start_date": "Apr 28, 2014",
      "country": "",
      "city": "",
      "emoji": "memo_17",
      "coord": {
        "lat": 0,
        "lng": 0
      }
    },
    {
      "team": "Advocacy",
      "name": "Ross",
      "role": "Customer Advocate Manager",
      "location": "Louisville, KY, USA",
      "start_date": "Aug 31, 2015",
      "country": "United States",
      "city": "Louisville",
      "emoji": "memo_18",
      "coord": {
        "lat": 38.2527,
        "lng": -85.7585
      }
    },
    {
      "team": "Advocacy",
      "name": "Essence",
      "role": "Customer Advocate",
      "location": "Chicago, IL, USA",
      "start_date": "Sep 4, 2018",
      "country": "United States",
      "city": "Chicago",
      "emoji": "memo_19",
      "coord": {
        "lat": 41.8781,
        "lng": -87.6298
      }
    },
    {
      "team": "Advocacy",
      "name": "Mel",
      "role": "Customer Advocate",
      "location": "Bandar Seri Begawan, Brunei Darussalam",
      "start_date": "Jul 1, 2019",
      "country": "Brunei",
      "city": "Bandar Seri Begawan",
      "emoji": "memo_20",
      "coord": {
        "lat": 4.9407,
        "lng": 114.9481
      }
    },
    {
      "team": "Advocacy",
      "name": "Cheryl",
      "role": "Technical Advocate",
      "location": "Global Cost of Living ",
      "start_date": "Feb 10, 2021",
      "country": "",
      "city": "Church Of Living Grace (Cheung Sha Wan) 基督教恩霖堂(長沙灣堂)",
      "emoji": "memo_21",
      "coord": {
        "lat": 22.3375,
        "lng": 114.1557
      }
    },
    {
      "team": "Advocacy",
      "name": "Lexi",
      "role": "Customer Advocate",
      "location": "Brooklyn, NY, USA",
      "start_date": "Sep 20, 2021",
      "country": "United States",
      "city": "Brooklyn",
      "emoji": "memo_22",
      "coord": {
        "lat": 40.6782,
        "lng": -73.9442
      }
    },
    {
      "team": "Advocacy",
      "name": "Ben",
      "role": "Customer Advocate",
      "location": "Nakhon Ratchasima, Thailand",
      "start_date": "Dec 13, 2021",
      "country": "Thailand",
      "city": "Nakhon Ratchasima",
      "emoji": "memo_23",
      "coord": {
        "lat": 14.9799,
        "lng": 102.0978
      }
    },
    {
      "team": "Marketing",
      "name": "Simon",
      "role": "Growth Marketing",
      "location": "Ottawa, Canada",
      "start_date": "Jan 10, 2022",
      "country": "Canada",
      "city": "Ottawa",
      "emoji": "memo_24",
      "coord": {
        "lat": 45.4215,
        "lng": -75.6972
      }
    },
    {
      "team": "Marketing",
      "name": "Tami",
      "role": "Content Writer",
      "location": "Lagos, Nigeria",
      "start_date": "Feb 23, 2022",
      "country": "Nigeria",
      "city": "Lagos",
      "emoji": "memo_25",
      "coord": {
        "lat": 6.5244,
        "lng": 3.3792
      }
    },
    {
      "team": "Design",
      "name": "Martin",
      "role": "Design Manager",
      "location": "Berkeley, CA, USA",
      "start_date": "Mar 21, 2022",
      "country": "United States",
      "city": "Berkeley",
      "emoji": "memo_26",
      "coord": {
        "lat": 37.8716,
        "lng": -122.2727
      }
    },
    {
      "team": "Marketing",
      "name": "Mitra",
      "role": "Social Media Manager",
      "location": "New Braunfels, TX, USA",
      "start_date": "Apr 11, 2022",
      "country": "United States",
      "city": "New Braunfels",
      "emoji": "memo_27",
      "coord": {
        "lat": 29.703,
        "lng": -98.1245
      }
    },
    {
      "team": "Engineering",
      "name": "Abeeb",
      "role": "Software Engineer",
      "location": "Lagos, Nigeria",
      "start_date": "Apr 25, 2022",
      "country": "Nigeria",
      "city": "Lagos",
      "emoji": "memo_28",
      "coord": {
        "lat": 6.5244,
        "lng": 3.3792
      }
    },
    {
      "team": "Engineering",
      "name": "Jacob",
      "role": "Software Engineer",
      "location": "Nashville, TN, USA",
      "start_date": "Jun 27, 2022",
      "country": "United States",
      "city": "Nashville",
      "emoji": "memo_29",
      "coord": {
        "lat": 36.1627,
        "lng": -86.7816
      }
    },
    {
      "team": "Engineering",
      "name": "Esther",
      "role": "Software Engineer",
      "location": "Madrid, Spain",
      "start_date": "Nov 14, 2022",
      "country": "Spain",
      "city": "Madrid",
      "emoji": "memo_30",
      "coord": {
        "lat": 40.4168,
        "lng": -3.7038
      }
    },
    {
      "team": "Design",
      "name": "Daniel P",
      "role": "Product Designer",
      "location": "Valletta, Malta",
      "start_date": "Jan 23, 2023",
      "country": "Malta",
      "city": "Valletta",
      "emoji": "memo_31",
      "coord": {
        "lat": 35.8989,
        "lng": 14.5146
      }
    },
    {
      "team": "Product",
      "name": "Nathan",
      "role": "Product Manager",
      "location": "Lehi, UT, USA",
      "start_date": "Apr 28, 2023",
      "country": "United States",
      "city": "Lehi",
      "emoji": "memo_32",
      "coord": {
        "lat": 40.3916,
        "lng": -111.8508
      }
    },
    {
      "team": "Product",
      "name": "Brandon",
      "role": "Product Manager",
      "location": "Lunenberg, MA",
      "start_date": "May 9, 2023",
      "country": "United States",
      "city": "Lunenburg",
      "emoji": "memo_33",
      "coord": {
        "lat": 42.5945,
        "lng": -71.7248
      }
    },
    {
      "team": "Design",
      "name": "Kate",
      "role": "Marketing UX Designer",
      "location": "Victoria, Canada",
      "start_date": "Jun 6, 2023",
      "country": "Canada",
      "city": "Victoria",
      "emoji": "memo_34",
      "coord": {
        "lat": 48.4284,
        "lng": -123.3656
      }
    },
    {
      "team": "Engineering",
      "name": "Raf",
      "role": "Engineering Manager",
      "location": "Poznan, Poland",
      "start_date": "Jun 13, 2023",
      "country": "Poland",
      "city": "Poznań",
      "emoji": "memo_35",
      "coord": {
        "lat": 52.4064,
        "lng": 16.9252
      }
    },
    {
      "team": "Engineering",
      "name": "Kateryna",
      "role": "Engineering Manager",
      "location": "Tallinn, Estonia",
      "start_date": "Jul 19, 2023",
      "country": "Estonia",
      "city": "Tallinn",
      "emoji": "memo_1",
      "coord": {
        "lat": 59.437,
        "lng": 24.7536
      }
    },
    {
      "team": "Marketing",
      "name": "Kirsti",
      "role": "Content Writer",
      "location": "Cape Town, South Africa",
      "start_date": "Aug 15, 2023",
      "country": "South Africa",
      "city": "Cape Town",
      "emoji": "memo_2",
      "coord": {
        "lat": -33.9249,
        "lng": 18.4241
      }
    },
    {
      "team": "Design",
      "name": "Alicja",
      "role": "Product Designer",
      "location": "Barcelona, Spain",
      "start_date": "Nov 28, 2023",
      "country": "Spain",
      "city": "Barcelona",
      "emoji": "memo_3",
      "coord": {
        "lat": 41.3851,
        "lng": 2.1734
      }
    },
    {
      "team": "Engineering",
      "name": "Martín",
      "role": "Software Engineer",
      "location": "Barcelona, Spain",
      "start_date": "Dec 12, 2023",
      "country": "Spain",
      "city": "Barcelona",
      "emoji": "memo_4",
      "coord": {
        "lat": 41.3851,
        "lng": 2.1734
      }
    },
    {
      "team": "Engineering",
      "name": "Frantz",
      "role": "Software Engineer",
      "location": "Lagos, Nigeria",
      "start_date": "Dec 13, 2023",
      "country": "Nigeria",
      "city": "Lagos",
      "emoji": "memo_5",
      "coord": {
        "lat": 6.5244,
        "lng": 3.3792
      }
    }
  ]
}
